[
  {
  "id": "1",
  "name": "Premium Motors",
  "address": "Santa Monica, CA",
  "phone": "555-111-2222",
  "latitude": 34.0195,
  "longitude": -118.4912,
  "services": ["Oil Change", "Tire Change", "Engine"],
  "rating": 4.9,
  "isFeatured": true,
  "about": "Premium Motors focuses on quick, honest maintenance for busy drivers on the Westside.",
  "hoursSummary": "Mon–Fri 8am–6pm · Sat 9am–2pm",
  "website": "premiummotors-sm.com"
},
  {
    "id": "shop_002",
    "name": "Elite Auto Repair",
    "address": "Los Angeles, CA",
    "phone": "555-333-4444",
    "latitude": 34.0522,
    "longitude": -118.2437,
    "services": ["Transmission", "Brakes", "Engine"],
    "rating": 4.8,
    "isFeatured": true
  },
  {
    "id": "shop_003",
    "name": "Quick Fix Garage",
    "address": "Los Angeles, CA",
    "phone": "555-555-6666",
    "latitude": 34.0407,
    "longitude": -118.2468,
    "services": ["Oil Change", "Muffler", "Engine"],
    "rating": 4.5,
    "isFeatured": false
  },
  {
    "id": "shop_004",
    "name": "Neighborhood Auto Care",
    "address": "Inglewood, CA",
    "phone": "555-777-8888",
    "latitude": 33.9617,
    "longitude": -118.3531,
    "services": ["Brakes", "Tire Change"],
    "rating": 4.3,
    "isFeatured": false
  },
  {
    "id": "shop_005",
    "name": "Downtown Engine & Brake",
    "address": "Los Angeles, CA",
    "phone": "555-222-9090",
    "latitude": 34.0505,
    "longitude": -118.2550,
    "services": ["Engine", "Brakes", "Oil Change"],
    "rating": 4.6,
    "isFeatured": true
  },
  {
    "id": "shop_006",
    "name": "Westside Tire & Auto",
    "address": "Culver City, CA",
    "phone": "555-444-1212",
    "latitude": 34.0211,
    "longitude": -118.3965,
    "services": ["Tire Change", "Oil Change"],
    "rating": 4.2,
    "isFeatured": false
  },
  {
    "id": "shop_007",
    "name": "Sunset Boulevard Auto",
    "address": "West Hollywood, CA",
    "phone": "555-888-1313",
    "latitude": 34.0928,
    "longitude": -118.3287,
    "services": ["Engine", "Transmission", "Brakes"],
    "rating": 4.4,
    "isFeatured": false
  },
  {
    "id": "shop_008",
    "name": "Airport Quick Lube",
    "address": "Los Angeles, CA",
    "phone": "555-999-1414",
    "latitude": 33.9416,
    "longitude": -118.4085,
    "services": ["Oil Change", "Tire Change"],
    "rating": 4.1,
    "isFeatured": false
  },
  {
    "id": "shop_009",
    "name": "Valley Auto Clinic",
    "address": "Van Nuys, CA",
    "phone": "555-101-1515",
    "latitude": 34.1867,
    "longitude": -118.4487,
    "services": ["Engine", "Muffler", "Brakes"],
    "rating": 4.3,
    "isFeatured": false
  },
  {
    "id": "shop_010",
    "name": "Coastal Auto Service",
    "address": "Long Beach, CA",
    "phone": "555-202-1616",
    "latitude": 33.7701,
    "longitude": -118.1937,
    "services": ["Oil Change", "Engine", "Transmission"],
    "rating": 4.5,
    "isFeatured": true
  }
]


